City,State,lat,lng
Shungnak,AK,66.8878642,-157.1398537
North Little Rock,AR,34.756104,-92.2677497
Springdale,AR,36.1745404,-94.1389831
Bearden,AR,33.7246503,-92.6156607
Almyra,AR,34.4061761,-91.4100147
Lake Village,AR,33.3314055,-91.2840738
Marana,AZ,32.436381,-111.2224422
Kingman,AZ,35.189443,-114.0530065
Phoenix,AZ,33.4483771,-112.0740373
Tucson,AZ,32.2539787,-110.9741769
Anza,CA,33.5552692,-116.6741822
Brawley,CA,32.9786566,-115.530267
Herlong,CA,40.1439386,-120.1346535
Manteca,CA,37.7974273,-121.2160526
McFarland,CA,35.6780104,-119.2292748
Bakersfield,CA,35.3732921,-119.0187125
Cantua Creek,CA,36.50134,-120.3162666
Los Banos,CA,37.0582786,-120.8499151
Calipatria,CA,33.1255957,-115.5141538
Roseville,CA,38.7521235,-121.2880059
Mountain Center,CA,33.7063905,-116.7252397
Brighton,CO,39.9852617,-104.8205283
Basalt,CO,39.3724811,-107.0785013
Cortez,CO,37.3488827,-108.5859265
Montrose,CO,38.4783198,-107.8761738
Grand Junction,CO,39.0638705,-108.5506486
Colorado Springs,CO,38.8338816,-104.8213634
Rifle,CO,39.5347023,-107.7831198
Fort Collins,CO,40.5852602,-105.084423
Bedrock,CO,38.3149897,-108.8909363
Denver,CO,39.7392358,-104.990251
Boulder,CO,40.0149856,-105.2705456
Breckenridge,CO,39.4816537,-106.0383518
Aurora,CO,39.7294319,-104.8319195
Lafayette,CO,39.9935959,-105.0897058
Crested Butte,CO,38.8697146,-106.9878231
Golden,CO,39.755543,-105.2210997
Antonito,CO,37.079179,-106.0086329
Sterling,CO,40.6255415,-103.207709
Manitou Springs,CO,38.8575579,-104.9128177
Durango,CO,37.27528,-107.8800667
Pueblo,CO,38.2705996,-104.6101033
Steamboat,CO,40.4849769,-106.8317158
Ignacio,CO,37.1150037,-107.633113
Waktins,CO,39.7435442,-104.6080353
Watkins,CO,39.7435442,-104.6080353
Leadville,CO,39.2508229,-106.2925238
Craig,CO,40.5152491,-107.5464541
Carbondale,CO,39.4022054,-107.2111628
Meeker,CO,40.0374733,-107.9131299
Gypsum,CO,39.6446532,-106.9491072
Arvada,CO,39.8027644,-105.0874842
Norwood,CO,38.130546,-108.2923037
La Jara,CO,37.2750084,-105.960301
Platteville,CO,40.2149829,-104.8227494
Rocky Ford,CO,38.052508,-103.7202274
Ordway,CO,38.2180608,-103.7560606
Greeley,CO,40.4233142,-104.7091322
Gilcrest,CO,40.2819266,-104.7777471
Parachute,CO,39.4519225,-108.0528529
Palisade,CO,39.1102587,-108.3509193
Alamosa,CO,37.4694491,-105.8700214
Salida,CO,38.5347193,-105.9989022
Morrison,CO,39.6535988,-105.1910996
Towaoc,CO,37.2044387,-108.7295415
Longmont,CO,40.1672068,-105.1019275
Monte Vista,CO,37.5791696,-106.1480842
Brush,CO,40.2588686,-103.6238367
New Castle,CO,39.5727585,-107.5364443
Lakewood,CO,39.7047095,-105.0813734
Johnstown,CO,40.3369272,-104.9121967
La Salle,CO,40.3488703,-104.7019102
Bloomfield,CT,41.826488,-72.7300945
Washington,DC,38.9071923,-77.0368707
Georgetown,DE,38.6901134,-75.3854728
Newark,DE,39.6837226,-75.7496572
Marathon,FL,24.726026,-81.0446262
Orlando,FL,28.5383832,-81.3789269
Hilliard,FL,30.691068,-81.9173334
Kenansville,FL,27.8764614,-80.9882554
Perry,FL,30.1115662,-83.5821063
Bowling Green,FL,27.6383673,-81.8239717
Live Oak,FL,30.2949457,-82.98402
Defuniak Springs,FL,30.7210227,-86.1152184
Tallahassee,FL,30.4381828,-84.2806235
Jasper,FL,30.5182727,-82.94819
Bartow,FL,27.8964147,-81.8431374
Fort Myers,FL,26.640628,-81.8723084
Clewiston,FL,26.7542312,-80.9336753
Arcadia,FL,27.2158826,-81.8584164
Glen St Mary,FL,30.2757837,-82.1615179
Indiantown,FL,27.0272756,-80.4856083
Interlachen,FL,29.6238574,-81.8903684
Okeechobee,FL,27.2439349,-80.8297828
St. Johns,FL,30.0820653,-81.5471201
Union,FL,30.0745112,-82.345189
Baker,FL,30.7971318,-86.681344
Nassau,FL,30.5927334,-81.8224362
St. Lucie,FL,27.499208,-80.3421984
Clay,FL,29.9943564,-81.7787021
DeSoto,FL,27.2142078,-81.7787021
Brevard,FL,28.263933,-80.7214417
Palm Beach,FL,26.7056206,-80.0364297
Manatee,FL,27.4799195,-82.345189
Indian River,FL,27.6947732,-80.543845
Midway,GA,31.8053848,-81.4306953
Monroe,GA,33.7948364,-83.713229
Hazlehurst,GA,31.8696309,-82.5943026
Lyons,GA,32.2043546,-82.321791
Kingsland,GA,30.7999563,-81.6898261
Vienna,GA,32.0915577,-83.7954518
Alma,GA,31.5393701,-82.4623557
Brunswick,GA,31.1510919,-81.4878157
Covington,GA,33.5967815,-83.8601827
Darien,GA,31.3702255,-81.4339903
Eatonton,GA,33.3267997,-83.3884961
Hiram,GA,33.8756601,-84.7621592
Comer,GA,34.0637227,-83.1254261
Fitzgerald,GA,31.7149082,-83.2526545
Guyton,GA,32.3421597,-81.3921781
Waynesboro,GA,33.0898731,-82.0156736
Dawson,GA,31.7735001,-84.4465826
Maui,HI,20.7983626,-156.3319253
Oahu,HI,21.4389123,-158.0000565
Kalona,IA,41.4830723,-91.7060015
Traer,IA,42.1936007,-92.4654688
Cresco,IA,43.3813568,-92.1140547
Denison,IA,42.024988,-95.3588867
St. Ansgar,IA,43.3784811,-92.9203887
Woodbine,IA,41.7370447,-95.7020596
Sibley,IA,43.3999861,-95.7516395
Onawa,IA,42.0266548,-96.0972376
Osage,IA,43.2841382,-92.8190838
Cedar Falls,IA,42.5348993,-92.4453161
Postville,IA,43.084702,-91.5682015
Hampton,IA,42.7425009,-93.2103402
Coon Rapids,IA,41.8708192,-94.6774786
Galt,IA,42.693076,-93.6055899
Iowa Falls,IA,42.5198868,-93.2645741
Worley,ID,47.400736,-116.9171246
Sagle,ID,48.2031124,-116.5655585
Elizabeth,IL,42.3177911,-90.221517
Shelbyville,IL,39.4064284,-88.7900689
Astoria,IL,40.227545,-90.3595683
Paris,IL,39.611146,-87.6961374
Springfield,IL,39.7817213,-89.6501481
Elgin,IL,42.0354084,-88.2825668
University Parl,IL,41.4400344,-87.6833769
Carterville,IL,37.7600501,-89.0772991
Apple River,IL,42.5050054,-90.0987361
Stockton,IL,42.3497355,-90.0067916
Harvard,IL,42.422241,-88.6137101
Lena,IL,42.3794586,-89.8223426
Ridge Farm,IL,39.8955918,-87.6519669
Poplar Grove,IL,42.3683521,-88.822047
Bluford,IL,38.3259938,-88.7438718
Maple Park,IL,41.9075282,-88.5992494
Kent,IL,42.3086275,-89.9020667
Freeport,IL,42.2966861,-89.6212271
Grant Park,IL,41.2411449,-87.6461491
Morrison,IL,41.809751,-89.9651186
Kankakee,IL,41.1200325,-87.8611531
Marengo,IL,42.2486332,-88.6084269
Huntley,IL,42.1680796,-88.4281415
Polo,IL,41.986141,-89.5792782
Mendota,IL,41.5472547,-89.1175851
Farmington,IL,40.6980932,-90.0059483
Fulton,IL,41.8672508,-90.1595705
Carlyle,IL,38.6103264,-89.3725796
Joliet,IL,41.525031,-88.0817251
Watseka,IL,40.7761465,-87.7364218
Blandinsville,IL,40.556152,-90.8659692
Murrayville,IL,39.5856024,-90.2520645
Danville,IL,40.124481,-87.6300207
Macomb,IL,40.4592076,-90.6717971
Lacon,IL,41.0247583,-89.4112007
Rockford,IL,42.2711311,-89.0939952
Beecher,IL,41.34059,-87.6214286
Somonauk,IL,41.6337127,-88.6810594
Woodstock,IL,42.3147436,-88.4487021
Paw Paw,IL,41.688919,-88.9811986
Pontiac,IL,40.8808666,-88.6297839
Louisville,IL,38.772269,-88.5025485
Belvidere,IL,42.2639098,-88.8442674
Granville,IL,41.2581956,-89.2277026
Centralia,IL,38.5285169,-89.1316944
Olney,IL,38.7308811,-88.0853154
Edwardsville,IL,38.8114364,-89.953157
Cortland,IL,41.9200288,-88.6886963
Sidney,IL,40.0250332,-88.0733729
Edelstein,IL,40.9406616,-89.6343701
St. Anne,IL,41.0229518,-87.7181619
Cherry Valley,IL,42.2347434,-88.9489912
Sandwich,IL,41.6458634,-88.6217432
Manteno Township,IL,41.2405004,-87.8353278
Palmyra,IL,39.4347699,-89.9959401
Crete,IL,41.4444791,-87.6314312
DeKalb,IL,41.9295355,-88.7499128
Gardner,IL,41.1855879,-88.3097827
Lyndon,IL,41.7175302,-89.9259481
Mt Morris,IL,42.0503062,-89.4312201
Braidwood,IL,41.2650318,-88.2122823
Standard City,IL,39.3522723,-89.7875959
Streator,IL,41.1208668,-88.835352
Rock Falls,IL,41.7797533,-89.6889967
Downs,IL,40.39698,-88.8706291
Meredosia,IL,39.8311579,-90.5595708
Lee,IL,41.7950293,-88.9414786
Herrin,IL,37.8031056,-89.0275744
West Frankfort,IL,37.8985966,-88.9233622
Wempletown,IL,42.343351,-89.2042766
Wichert,IL,41.0572552,-87.704203
Bartonville,IL,40.6503158,-89.6520455
Bourbonnais,IL,41.1760108,-87.879523
Burlington,IL,42.0528038,-88.5481412
Prophetstown,IL,41.6714198,-89.9362249
Kirkland,IL,42.0925258,-88.8512063
Orangeville,IL,42.4683453,-89.6440073
Glenwood,IL,41.5425349,-87.6022658
Morris,IL,41.357254,-88.4211785
Oregon,IL,42.0147513,-89.3323279
Bonfield,IL,41.1466986,-88.0578276
Sycamore,IL,41.9889173,-88.6867538
Deer Creek,IL,40.6300374,-89.3325885
Pekin,IL,40.5675388,-89.640658
Elwood,IL,41.4039201,-88.1117242
Williamsfield,IL,40.9225373,-90.0145584
Tonica,IL,41.2158684,-89.0667488
Lostant,IL,41.142812,-89.0600817
Tremont,IL,40.5275392,-89.4925979
San Jose,IL,40.305598,-89.6028829
Marine,IL,38.7864361,-89.7775939
Columbia City,IN,41.1572686,-85.4883127
Linden,IN,40.1880944,-86.9038959
Wanatah,IN,41.4305964,-86.898358
New Castle,IN,39.928935,-85.3702476
Lanesville,IN,38.2370131,-85.9858008
Scotland,IN,38.9128,-86.9039
Greenfield,IN,39.785043,-85.7694226
New Haven,IN,41.0706042,-85.0144124
Henryville,IN,38.5417282,-85.7677438
Ellettsville,IN,39.2339348,-86.6250008
Trafalgar,IN,39.4161604,-86.150823
Prestwick,IN,39.7502,-86.43411
Peru,IN,40.7536528,-86.0688811
Mitchell,IN,38.7328304,-86.4736019
Columbus,IN,39.2014404,-85.9213796
Kokomo,IN,40.486427,-86.1336033
Geneva,IN,46.2043907,-86.1431577
LaOtto,IN,41.2906243,-85.1979857
Colby,KS,39.3958369,-101.0523773
Kansas City,KS,39.1155314,-94.6267873
South Hutchinson,KS,38.0280671,-97.9403303
Berea,KY,37.568694,-84.2963223
Winchester,KY,37.990079,-84.1796503
Simpsonville,KY,38.22257,-85.3552349
Harrodsburg,KY,37.762298,-84.8432852
Brewster,MA,41.7600902,-70.0827905
Harvard,MA,42.5000919,-71.5828444
Rehoboth,MA,41.8470056,-71.2393933
Hadley,MA,42.3417565,-72.5884222
Cambridge,MA,42.3736158,-71.1097335
Holliston,MA,42.2000966,-71.4245049
Marion,MA,41.697719,-70.7525299
Freetown,MA,41.7619708,-71.014118
Bourne,MA,41.7412773,-70.5989325
Warren,MA,42.2125423,-72.191185
Adams,MA,42.6242251,-73.1174344
Hancock,MA,42.543138,-73.3237182
Mattapoisett,MA,41.6616323,-70.8150742
Boston,MA,42.3600825,-71.0588801
Mashpee,MA,41.647872,-70.4819674
Spencer,MA,42.2439682,-71.9922867
Uxbridge,MA,42.0772429,-71.6302532
Oxford,MA,42.1167606,-71.8647577
Fairhaven,MA,41.6376043,-70.9036487
Belchertown,MA,42.2770346,-72.4008884
Plympton,MA,41.9558953,-70.8148435
Pepperell,MA,42.6659232,-71.5884363
Wareham,MA,41.7614511,-70.7197342
Westport,MA,41.5700183,-71.0735476
West Boylston,MA,42.3667589,-71.785627
Sutton,MA,42.1500353,-71.7632878
Carver,MA,41.8834363,-70.7625376
Bolton,MA,42.4334258,-71.6078449
Gloucester,MA,42.6159285,-70.6619888
Littleton,MA,42.5372893,-71.5128022
Hopkinton,MA,42.2286954,-71.5225646
Rochester,MA,41.7549658,-70.8452677
Sandwich,MA,41.7589615,-70.4939317
Dudley,MA,42.0433661,-71.9276033
Canton,MA,42.1584324,-71.1447732
Hardwick,MA,42.3490548,-72.1986558
Southbridge,MA,42.0751065,-72.0333905
New Braintree,MA,42.3167581,-72.1259114
Millbury,MA,42.1920719,-71.761522
Fitchburg,MA,42.5834228,-71.8022955
Kingston,MA,41.9932752,-70.7284785
Webster,MA,42.050091,-71.8800628
Orange,MA,42.590354,-72.3097914
Shirley,MA,42.5437035,-71.6495176
Sturbridge,MA,42.1084122,-72.0787059
Goshen,MA,42.4407187,-72.7993986
Plymouth,MA,41.9584457,-70.6672621
Leominster,MA,42.5250906,-71.759794
North Brookfield,MA,42.2685574,-72.08504
Upton,MA,42.1744878,-71.6022583
Rutland,MA,42.3695086,-71.9481211
Mendon,MA,42.1056525,-71.5522859
Hubbardston,MA,42.4737009,-72.0061877
Phillipston,MA,42.5486993,-72.1328582
Clarksburg,MA,42.7170314,-73.092685
North Adams,MA,42.700915,-73.1087148
Williamsburg,MA,42.3928305,-72.7300929
Grafton,MA,42.2070391,-71.6856236
Wilmington,MA,42.5481714,-71.1724467
Leicester,MA,42.245926,-71.9086843
Charlton,MA,42.13565,-71.970074
Swansea,MA,41.748162,-71.1895617
Hopedale,MA,42.1306357,-71.5412077
Ludlow,MA,42.1600936,-72.475919
Haverhill,MA,42.7762015,-71.0772796
Pittsfield,MA,42.4500845,-73.2453824
Norton,MA,41.9667703,-71.1869963
Dover,MA,42.2458749,-71.2828719
West Brookfield,MA,42.2353463,-72.1411642
West Bridgewater,MA,42.0189894,-71.0078215
Newbury,MA,42.7649497,-70.8714528
Hatfield,MA,42.3732554,-72.5963431
Monson,MA,42.1042451,-72.3189519
Foxborough,MA,42.0653812,-71.2478251
Hinsdale,MA,42.4386967,-73.1253799
Gill,MA,42.6408105,-72.4996367
Holyoke,MA,42.2042586,-72.6162009
Somerville,MA,42.3875968,-71.0994968
East Bridgewater,MA,42.0334341,-70.9592096
Marlborough,MA,42.3459271,-71.5522874
Middleborough,MA,41.8929942,-70.9107708
Lowell,MA,42.6334247,-71.3161718
Barre,MA,42.4229047,-72.1051002
Westminster,MA,42.5459227,-71.9106308
Acushnet,MA,41.7223696,-70.8952337
Millis,MA,42.1669661,-71.351738
Sterling,MA,42.4374156,-71.7606293
Wendell,MA,42.5481852,-72.396722
Braintree,MA,42.2079017,-71.0040013
Southwick,MA,42.0548167,-72.7703724
Lakeville,MA,41.8459169,-70.9495226
Shrewsbury,MA,42.2959267,-71.7128471
Middleton,MA,42.5950939,-71.0161643
Becket,MA,42.3319904,-73.0829366
Natick,MA,42.2775281,-71.3468091
Milton,MA,42.2495321,-71.0661653
Melrose,MA,42.4547874,-71.06547
Framingham,MA,42.279286,-71.4161565
New Bedford,MA,41.6362152,-70.934205
Chatham,MA,41.6820897,-69.9597664
Everett,MA,42.40843,-71.0536625
Springfield,MA,42.1014831,-72.589811
Walpole,MA,42.1470851,-71.2517835
Easton,MA,42.0245442,-71.1286594
Chelmsford,MA,42.5998139,-71.3672838
Ashland,MA,42.2612067,-71.4633956
Winchendon,MA,42.6871009,-72.0439529
Plainfield,MA,42.5153633,-72.9162075
Raynham,MA,41.9487077,-71.0731162
Amherst,MA,42.3732216,-72.5198537
Westfield,MA,42.1250929,-72.749538
Boxborough,MA,42.4834197,-71.5167139
Northampton,MA,42.3250896,-72.6412013
Athol,MA,42.5959329,-72.2267383
Blandford,MA,42.1806463,-72.9273224
Halifax,MA,41.991213,-70.861985
Plainville,MA,42.0042655,-71.3328331
Seekonk,MA,41.808434,-71.3369972
Winchester,MA,42.452303,-71.1369959
Stoughton,MA,42.1229099,-71.1092012
Orleans,MA,41.7898354,-69.9897323
Dennis,MA,41.7353062,-70.1939429
Methuen,MA,42.7262016,-71.1908924
Acton,MA,42.4850931,-71.43284
East Longmeadow,MA,42.0645396,-72.5125863
Medway,MA,42.1417641,-71.3967256
Lexington,MA,42.4473497,-71.2271531
Hanover,MA,42.1162217,-70.8476708
Tyngsborough,MA,42.6766696,-71.4244224
Palmer,MA,42.1584103,-72.3286869
Ayer,MA,42.5611947,-71.5899054
Bridgewater,MA,41.9903519,-70.9750541
Erving,MA,42.6000863,-72.3981416
Lancaster,MA,42.4556452,-71.6731242
Deerfield,MA,42.5445588,-72.6056435
East Brookfield,MA,42.2266927,-72.046446
Wilbraham,MA,42.1237206,-72.431586
Ware,MA,42.2598457,-72.2398566
Wales,MA,42.0695393,-72.2223007
Easthampton,MA,42.266757,-72.66898
Dighton,MA,41.843859,-71.1567344
Russell,MA,42.189861,-72.8591256
Peru,MA,42.4381417,-73.0459339
Beverly,MA,42.5584283,-70.880049
Attleboro,MA,41.9445441,-71.2856082
Shutesbury,MA,42.4564779,-72.4098077
Dunstable,MA,42.6750898,-71.4828433
Agawam,MA,42.0695391,-72.6148117
Westhampton,MA,42.3028667,-72.7745382
Tolland,MA,42.0813879,-73.0118668
Gardner,MA,42.5750883,-71.998133
Lunenburg,MA,42.5945273,-71.7245035
West Tisbury,MA,41.3812245,-70.6744723
Newton,MA,42.3370413,-71.2092214
Brockton,MA,42.0834335,-71.0183787
Worcester,MA,42.2625932,-71.8022934
Sheffield,MA,42.1099885,-73.3551436
Woburn,MA,42.4792618,-71.1522765
Waltham,MA,42.3764852,-71.2356113
Westborough,MA,42.2695216,-71.6161294
Falmouth,MA,41.5532208,-70.6085886
Brimfield,MA,42.1225482,-72.2005059
Cheshire,MA,42.5620278,-73.162881
Oakham,MA,42.3527105,-72.0449783
Great Barrington,MA,42.1959798,-73.362008
Charlemont,MA,42.627862,-72.8698183
Granby,MA,42.2570866,-72.5168859
Brookfield,MA,42.2139817,-72.1022991
Barnstable,MA,41.7003208,-70.3002024
Bellingham,MA,42.0867608,-71.4745881
Conway,MA,42.5098085,-72.6995349
Dalton,MA,42.4736959,-73.1662138
New Marlborough,MA,42.1111825,-73.2529464
Berlin,MA,42.3812039,-71.6370121
Northbridge,MA,42.1516323,-71.6494407
Maynard,MA,42.4334903,-71.4495058
Stoneham,MA,42.4816758,-71.1001891
Dartmouth,MA,41.6130323,-70.9704787
Bernardston,MA,42.6710048,-72.5483277
Tewksbury,MA,42.6106478,-71.2342248
Pembroke,MA,42.0714925,-70.8092
Lanesborough,MA,42.5173058,-73.2281596
Blackstone,MA,42.0418415,-71.536786
Hampden,MA,42.0639841,-72.4134167
Granville,MA,42.0996545,-72.9224329
Auburn,MA,42.1945385,-71.8356271
Douglas,MA,42.0543449,-71.739379
Franklin,MA,42.0834313,-71.396725
University Park,MD,38.9703884,-76.941919
Greenbelt,MD,39.0045544,-76.8755282
Baltimore,MD,39.2903848,-76.6121893
Upper Marlboro,MD,38.8159473,-76.7496909
Fort Washington,MD,38.7073379,-77.0230313
Snow Hill,MD,38.1770634,-75.3926959
Smithsburg,MD,39.6548186,-77.5727681
Oxon Hill,MD,38.8033178,-76.9897278
Windsor Mill,MD,39.3326927,-76.7595659
Clinton,MD,38.7651145,-76.8983059
Union Bridge,MD,39.5689895,-77.176927
Flintstone,MD,39.7035249,-78.5698598
Cheltenham,MD,38.7344244,-76.8276657
Chester,MD,38.9753903,-76.2893991
Kingsville,MD,39.4487185,-76.4177396
Williamsport,MD,39.6006523,-77.8205508
Hillcrest Heights,MD,38.8328909,-76.9594189
Silver Spring,MD,38.9906657,-77.026088
Elkridge,MD,39.1978788,-76.7625073
White Marsh,MD,39.3794196,-76.4599043
Elkton,MD,39.6067789,-75.8332718
Prince Georges,MD,38.7849211,-76.8720961
Hanover,MD,39.1955042,-76.7228227
Reisterstown,MD,39.4695489,-76.8294213
East New Market,MD,38.5989423,-75.9256287
Bowie,MD,39.0067768,-76.7791365
Accident,MD,39.628696,-79.319759
Hancock,MD,39.7000024,-78.1863789
Hagerstown,MD,39.6417629,-77.7199932
Friendsville,MD,39.6636933,-79.4053167
Lothian,MD,38.8317815,-76.611351
Jessup,MD,39.1492746,-76.7752493
Tracys Landing,MD,38.7801162,-76.5957937
Halethorpe,MD,39.2401735,-76.6806441
Marriottsville,MD,39.3491115,-76.8996474
Columbia,MD,39.2037144,-76.8610462
Hampstead,MD,39.6048253,-76.8499774
Gaithersburg,MD,39.1439689,-77.2016062
Edgewood,MD,39.4187194,-76.2944016
Hunt Valley,MD,39.4900013,-76.6585074
Brandywine,MD,38.6967833,-76.8477485
Freeland,MD,39.7048259,-76.6838605
Sykesville,MD,39.3737149,-76.9677566
Spencerville,MD,39.1145558,-76.9795532
Annandale,MD,39.3234378,-76.9747004
Oakland,MD,39.4078747,-79.4067116
Frederick,MD,39.4142688,-77.4105409
District Heights,MD,38.8576128,-76.8894171
Essex,MD,39.3092743,-76.474962
Middletown,MD,39.4437123,-77.5447102
Stoney Run,MD,38.2159592,-76.4885648
Westminster,MD,39.5753791,-76.9958149
Belcamp,MD,39.4737199,-76.2413446
Cambridge,MD,38.5632868,-76.0785791
Temple Hills,MD,38.8140024,-76.9455296
Rosedale,MD,39.3201074,-76.5155191
West Friendship,MD,39.3048811,-76.9530598
Woodsboro,MD,39.5331563,-77.314706
Glen Burnie,MD,39.1626084,-76.6246886
South Paris,ME,44.223681,-70.5133929
Edgecomb,ME,43.9584129,-69.630602
Wiscasset,ME,44.0028921,-69.665583
Wayne,ME,44.3486793,-70.0661649
Bar Harbor,ME,44.3876119,-68.2039123
Lisbon,ME,44.0316013,-70.1043704
Brunswick,ME,43.9140162,-69.9669961
Freeport,ME,43.8570065,-70.1031201
Rockland,ME,44.1036914,-69.1089293
South China,ME,44.3949791,-69.5709229
Damariscotta,ME,44.0328765,-69.5188884
Monson,ME,45.2869936,-69.5011619
Baldwin,ME,43.8331978,-70.7781172
Gardiner,ME,44.2300698,-69.7753222
Berwick,ME,43.2683199,-70.8635506
Rumford,ME,44.5536606,-70.5508829
Belfast,ME,44.4259092,-69.0064234
China,ME,44.4786791,-69.5172641
Grawn,MI,44.6634149,-85.6923204
Portland,MI,42.8672048,-84.9100792
Kalamazoo,MI,42.2917069,-85.5872286
Cadillac,MI,44.2519526,-85.4011619
Allendale,MI,42.9721934,-85.9540407
Marquette,MI,46.5436199,-87.3953713
Cassopolis,MI,41.9117133,-86.0100068
L'Anse,MI,46.7565991,-88.4529085
East Lansing,MI,42.7369792,-84.4838654
Escanaba,MI,45.7452466,-87.0645801
Rockford,MN,45.0872861,-93.7415093
Lutsen,MN,47.6469402,-90.6748026
Pelican Rapids,MN,46.5707924,-96.0831124
Rushford,MN,43.8109804,-91.7490143
Ramsey,MN,45.2611,-93.45
St. Joseph,MN,45.5647724,-94.317966
Alexandria,MN,45.8848164,-95.3776663
Bigfork,MN,47.7443867,-93.6540847
Glencoe,MN,44.7690437,-94.1517524
Park Rapids,MN,46.9221813,-95.0586322
Moorhead,MN,46.8737648,-96.7678039
Kasota,MN,44.2911734,-93.9664299
Owatonna,MN,44.0879297,-93.2260184
Minneapolis,MN,44.977753,-93.2650108
Litchfield,MN,45.1258332,-94.5283333
Spicer,MN,45.2330198,-94.9400088
St. Paul,MN,44.9537029,-93.0899578
Tyler,MN,44.2762658,-96.1352371
Shakopee,MN,44.7973962,-93.5272861
Taylors Falls,MN,45.4019062,-92.6524292
Norwood Young America,MN,44.7735732,-93.9216348
Farmington,MN,44.6402434,-93.1435497
Northfield,MN,44.4582983,-93.161604
Rosemount,MN,44.7394103,-93.1257723
North Branch,MN,45.5102135,-92.9931054
Two Harbors,MN,47.0227111,-91.6707322
Detroit Lakes,MN,46.8171808,-95.8453253
Brainerd,MN,46.3526733,-94.2020084
Scandia,MN,45.2535777,-92.8057669
Bemidji,MN,47.471573,-94.8826861
Medina,MN,45.0352411,-93.5824586
Lamberton,MN,44.2310676,-95.2641639
Backus,MN,46.8202373,-94.5163876
Lake Crystal,MN,44.1049223,-94.2185569
Minnesota City,MN,44.0938521,-91.7495959
Elgin,MN,44.1302435,-92.2515588
New Prague,MN,44.5432966,-93.5760652
Edgerton,MN,43.8724681,-96.1286369
Foley,MN,45.6646892,-93.9097009
Maynard,MN,44.9075318,-95.4676389
Brooten,MN,45.5008614,-95.1247422
Lake Lillian,MN,44.9435732,-94.8799994
Granite Falls,MN,44.8099575,-95.5455752
Cold Spring,MN,45.4536111,-94.4277778
Winsted,MN,44.9638517,-94.0474725
Hector,MN,44.7440364,-94.7152067
Mapleton,MN,43.9288511,-93.9560643
Morgan,MN,44.4169049,-94.9255465
Jordan,MN,44.6711949,-93.6294286
Sartell,MN,45.6216318,-94.2069365
Wabasha,MN,44.3754518,-92.0236059
Waseca,MN,44.0770411,-93.5083843
Center City,MN,45.3938525,-92.8166023
Claremont,MN,44.0442876,-92.9978784
Freeport,MN,45.6627427,-94.6900104
Pine Island,MN,44.2013537,-92.6462999
Watertown,MN,44.9635738,-93.847189
Young America,MN,44.7809286,-93.9129135
Red Wing,MN,44.5660691,-92.5369563
Lester Prairie,MN,44.8838514,-94.0416389
Montrose,MN,45.0694444,-93.9125
Sauk Rapids,MN,45.5919097,-94.1661011
Big Lake,MN,45.3325319,-93.7419723
Pipestone,MN,43.9985815,-96.3128117
Kasson,MN,44.0295675,-92.7509042
Corcoran,MN,45.0952417,-93.5474577
Waverly,MN,45.0643283,-93.9679204
Byron,MN,44.0327417,-92.6454624
Eagle Lake,MN,44.1639381,-93.8813245
Paynesville,MN,45.3768459,-94.7236488
Courtland,MN,44.2682979,-94.3402456
Richmond,MN,45.454111,-94.5199894
Glenwood,MN,45.6502392,-95.3900419
Webster,MN,44.529686,-93.352723
Barnesville,MN,46.6533237,-96.4200126
Duluth,MN,46.7866719,-92.1004852
Zumbrota,MN,44.294132,-92.6690806
Butterfield,MN,43.9582903,-94.7947044
Edina,MN,44.8896866,-93.3499489
Cottage Grove,MN,44.8277446,-92.9438218
Eagan,MN,44.8041322,-93.1668858
Kenyon,MN,44.2721868,-92.985484
Cokato,MN,45.0777389,-94.1900879
New Germany,MN,44.8841291,-93.9705254
Slayton,MN,43.9877419,-95.7558464
Goodhue,MN,44.4005221,-92.6238028
New Richland,MN,43.8944047,-93.4918842
Buffalo Lake,MN,44.7371841,-94.6169333
Janesville,MN,44.1161857,-93.7077397
Morristown,MN,44.2271852,-93.4446652
Lindstrom,MN,45.3894083,-92.8479921
Renville,MN,44.7891264,-95.2116731
Prinsburg,MN,44.9338496,-95.1875089
Hadley,MN,44.001076,-95.853905
Wrenshall,MN,46.6166577,-92.3853613
Clara City,MN,44.9555652,-95.3671542
Mankato,MN,44.1661456,-94.0055647
Stacy,MN,45.3980205,-92.9874404
Minnesota Lake,MN,43.8419036,-93.8318949
Waconia,MN,44.8504317,-93.7876429
Tracy,MN,44.2319444,-95.6227778
Waterville,MN,44.2177823,-93.566267
Cleveland,MN,44.3255219,-93.8377341
Clear Lake,MN,45.4466203,-93.9963128
Zumbro Falls,MN,44.2833001,-92.4221257
St. Cloud,MN,45.5579451,-94.1632404
Mayer,MN,44.8849625,-93.8877453
Montevideo,MN,44.9410447,-95.7236136
St. Michael,MN,45.209964,-93.6649642
Belle Plaine,MN,44.6230409,-93.7684042
Starbuck,MN,45.614405,-95.5311514
Monticello,MN,45.3055201,-93.7941378
Hastings,MN,44.7443293,-92.8513706
Osakis,MN,45.866908,-95.1522522
Wyoming,MN,45.3375,-92.9980556
Eden Prairie,MN,44.8546856,-93.470786
Clarks Grove,MN,43.763832,-93.3292623
Meire Grove,MN,45.6296872,-94.8691827
Dodge Center,MN,44.0274641,-92.8551933
Good Thunder,MN,44.0046863,-94.0657885
Belgrade,MN,45.4530207,-95.0044608
Watkins,MN,45.3152415,-94.4086029
Melrose,MN,45.6746873,-94.8075152
Faribault,MN,44.2949636,-93.268827
Sacred Heart,MN,44.786903,-95.3516784
Albany,MN,45.6299647,-94.5700048
Dassel,MN,45.0816298,-94.3069284
Stewart,MN,44.7246843,-94.4858184
St. Paul Park,MN,44.8348405,-92.9925577
Chisago City,MN,45.3735757,-92.8899376
Cologne,MN,44.7688889,-93.7805556
Kellogg,MN,44.3085769,-91.9957204
Nicollet,MN,44.2760774,-94.1874633
Altura,MN,44.0716301,-91.9396022
Rollingstone,MN,44.0977412,-91.8168206
Gibbon,MN,44.5338518,-94.5263709
Waite Park,MN,45.5571872,-94.2241585
Randolph,MN,44.526078,-93.0199336
Frontenac,MN,44.5109913,-92.3568219
Mendota Heights,MN,44.8835768,-93.1382749
Raymond,MN,45.0167371,-95.2388361
Green Isle,MN,44.6791292,-94.008304
La Crescent,MN,43.8264695,-91.3035514
Dundas,MN,44.4294089,-93.2018826
Villard,MN,45.7155184,-95.2691995
Gaylord,MN,44.5544276,-94.2208132
Mantorville,MN,44.0691307,-92.7557456
Afton,MN,44.9027452,-92.7835373
Saint Peter,MN,44.3258932,-93.955691
Annandale,MN,45.2611111,-94.1241667
Mazeppa,MN,44.2741649,-92.5420799
South Saint Paul,MN,44.8759802,-93.0275802
Hartland,MN,43.8038471,-93.4868831
Glyndon,MN,46.8772557,-96.5788187
Danube,MN,44.7919049,-95.097225
Franklin,MN,44.5311868,-94.8808256
Felton,MN,47.0797222,-96.5069444
Garvin,MN,44.2144045,-95.755848
Atwater,MN,45.1390368,-94.7776035
Woodbury,MN,44.9238552,-92.9593797
Plato,MN,44.7744063,-94.0399721
Hayfield,MN,43.890519,-92.8476898
Hugo,MN,45.159964,-92.9933412
Taylor Falls,MN,45.4019062,-92.6524292
Roseville,MN,45.0060767,-93.1566107
Silver Lake,MN,44.9032959,-94.1955334
Clarkfield,MN,44.7908779,-95.8070701
Lafayette,MN,44.4466306,-94.3952541
Cottonwood,MN,44.6088607,-95.6737122
Balaton,MN,44.2361111,-95.8716667
Bird Island,MN,44.7674614,-94.8955521
Springfield,MO,37.2089572,-93.2922989
Kearney,MO,39.3677802,-94.3621703
Columbia,MO,38.9517053,-92.3340724
Ste. Genevieve,MO,37.9786618,-90.0475582
Independence,MO,39.0911161,-94.4155068
Bridgeton,MO,38.7669954,-90.4115057
Victor,MT,46.4165889,-114.1501005
Lolo,MT,46.7573817,-114.0813175
Kalispell,MT,48.1919889,-114.3168131
Frenchtown,MT,47.0149221,-114.2298394
Lewistown,MT,47.0624732,-109.428238
Bonner,MT,46.8789224,-113.8932526
Red Lodge,MT,45.1857782,-109.2468211
Asheville,NC,35.5950581,-82.5514869
Wadesboro,NC,34.9682097,-80.0767266
Pinetown,NC,35.6104167,-76.8613079
Sanford,NC,35.4798757,-79.1802994
Aulander,NC,36.2296004,-77.1141282
Chadbourn,NC,34.3221129,-78.8269664
Bolivia,NC,34.0674911,-78.1482921
Hatteras,NC,35.2194549,-75.6903492
Sparta,NC,36.5054071,-81.1209189
Jefferson,NC,36.420403,-81.4734376
Lenoir,NC,35.9140196,-81.5389849
Boone,NC,36.216795,-81.6745517
Roxboro,NC,36.3937519,-78.982788
Asheboro,NC,35.7079146,-79.8136446
Cedar Rock,NC,35.9442976,-81.458149
Fayetteville,NC,35.0523673,-78.8783774
Fargo,ND,46.8771863,-96.7898034
Lincoln,NE,40.8136634,-96.7025764
Central City,NE,41.1158476,-98.0017248
Venango,NE,40.7616807,-102.0416583
Scottsbluff,NE,41.8666341,-103.6671662
Kearney,NE,40.6993303,-99.0816784
Fremont,NE,41.4333909,-96.4981467
Ainsworth,NE,42.5449992,-99.8615126
Hastings,NE,40.5862583,-98.3898726
Fort Calhoun,NE,41.4558282,-96.0264024
York,NE,40.8673915,-97.5920867
Norfolk,NE,42.0327168,-97.4168171
Ogalalla,NE,41.1282178,-101.7203993
Laconia,NH,43.5278546,-71.4703509
Lebanon,NH,43.6422934,-72.2517569
Warren,NH,43.9231239,-71.8920283
Plymouth,NH,43.7570196,-71.6881528
Tilton,NH,43.4426486,-71.589209
Franklin,NJ,41.1220409,-74.5804378
Pennsauken,NJ,39.9562052,-75.058009
Jersey City,NJ,40.7177545,-74.0431435
Secaucus,NJ,40.7895453,-74.0565298
Teterboro,NJ,40.8659912,-74.0544013
North Bergen,NJ,40.8042674,-74.012084
Newark,NJ,40.735657,-74.1723667
Wood-Ridge,NJ,40.8456555,-74.0879195
Perth Amboy,NJ,40.5067723,-74.2654234
Edison,NJ,40.5187154,-74.4120953
Delanco,NJ,40.0506669,-74.9535016
Linden,NJ,40.6220478,-74.2445902
Delran,NJ,40.0158918,-74.9564247
South Brunswick,NJ,40.3806901,-74.5316938
Deptford,NJ,39.8227054,-75.1195107
West Belmar,NJ,40.1696703,-74.0388252
Manchester Twp.,NJ,39.9711696,-74.3392821
Hamilton Township,NJ,40.2115109,-74.6796651
Moorestown,NJ,39.9688817,-74.948886
Tinton Falls,NJ,40.3042773,-74.1004185
Clifton,NJ,40.8584328,-74.1637553
Ridgefield,NJ,40.8342669,-74.0087505
Parsippany,NJ,40.8652865,-74.4173877
Toms River,NJ,39.9537358,-74.1979458
Iselin,NJ,40.5753817,-74.3223703
Whippany,NJ,40.8254055,-74.4022355
Lakewood,NJ,40.082129,-74.2097014
Neptune,NJ,40.2091219,-74.0386271
Old Bridge,NJ,40.4128551,-74.307282
Somerset,NJ,40.497604,-74.4884868
North Brunswick,NJ,40.4525163,-74.4766712
Dayton,NJ,40.372607,-74.5101536
Ho Ho Kus,NJ,40.9964864,-74.101253
Hazlet,NJ,40.4289526,-74.1650991
Larenceville,NJ,40.3016375,-74.7361013
West Caldwell,NJ,40.8409329,-74.3018154
Mount Laurel,NJ,39.934002,-74.8909988
Avenel,NJ,40.5803818,-74.2851469
Lumberton,NJ,39.9676482,-74.8003877
Saddle Brook,NJ,40.9040085,-74.1007318
Union,NJ,40.6975898,-74.2631635
Piscataway,NJ,40.554887,-74.4642861
Pittsgrove,NJ,39.5314846,-75.1311874
Elizabeth,NJ,40.6639916,-74.2107006
Southampton,NJ,39.9274288,-74.7265791
Monroe,NJ,40.336419,-74.4330474
Taos,NM,36.4072134,-105.5733788
Panaca,NV,37.7891056,-114.3846527
Gouverneur,NY,44.3367281,-75.462993
Trumansburg,NY,42.5422939,-76.6660589
Tonawanda,NY,43.0203347,-78.880315
Kingston,NY,41.9270367,-73.9973608
Johnsonville,NY,42.9146133,-73.5135439
Germantown,NY,42.1345339,-73.8917982
Orange,NY,42.3401767,-77.0334179
Ontario,NY,43.2209426,-77.2833793
Webster,NY,43.2122851,-77.4299939
Mechanicville,NY,42.9028547,-73.6873405
Millport,NY,42.2653526,-76.8346791
Brentwood,NY,40.7812093,-73.2462273
Brooklyn,NY,40.6781784,-73.9441579
Peekskill,NY,41.2900939,-73.9204158
East Hampton,NY,41.083151,-71.9994067
Bronx,NY,40.8447819,-73.8648268
Cortlandt,NY,41.2548162,-73.9001377
North Salem,NY,41.3350356,-73.5719051
Rotterdam,NY,42.7870209,-73.9709583
Averill Park,NY,42.6339685,-73.5537257
Johnson City,NY,42.1156308,-75.9588092
Homer,NY,42.6602873,-76.1551866
Center Moriches,NY,40.8003767,-72.7898233
Oppenheim,NY,43.0722932,-74.6926462
Ithaca,NY,42.4439614,-76.5018807
Parma,NY,43.2343532,-77.8138553
Callicoon,NY,41.8417169,-74.8974925
New York,NY,40.7127753,-74.0059728
Islip Terrace,NY,40.7494306,-73.1881781
Spencer,NY,42.2097963,-76.4932748
Fort Edward,NY,43.2670175,-73.5845597
Amityville,NY,40.6789893,-73.4170673
Grand Island,NY,43.0216283,-78.9657302
Westdale,NY,43.3878475,-75.8151893
Candor,NY,42.2328518,-76.3424357
New Rochelle,NY,40.9114882,-73.7823549
Barton,NY,42.042852,-76.4485514
Watkins Glen,NY,42.3806287,-76.8732921
Brewster,NY,41.3973163,-73.6170721
Maspeth,NY,40.7294018,-73.9065883
Chester,NY,41.3625937,-74.2712613
Staten Island,NY,40.5795317,-74.1502007
Yaphank,NY,40.8367653,-72.9170487
Elmsford,NY,41.0550969,-73.8201337
Beaver Dams,NY,42.2911853,-76.9596855
Queens,NY,40.7282239,-73.7948516
East Bloomfield,NY,42.8951611,-77.4352209
Port Jervis,NY,41.3750937,-74.692663
Buchanan,NY,41.2620383,-73.9381943
Thompson,NY,41.6543833,-74.663464
Newfield,NY,42.3471216,-76.5950555
Westtown,NY,41.336761,-74.5398821
Ogden,NY,43.1579962,-77.8138553
Seneca,NY,42.8466914,-77.0794705
Wappinger,NY,41.5964875,-73.900709
Lowman,NY,42.0297962,-76.7205076
Rome,NY,43.2128473,-75.4557303
Schenectady,NY,42.8142432,-73.9395687
Laurens,NY,42.530633,-75.0896077
Hilton,NY,43.2881161,-77.7933423
Liberty,NY,41.8012001,-74.74655
Baldwin,NY,40.6686336,-73.6119129
Williamson,NY,43.2239229,-77.1861277
Altamont,NY,42.7006324,-74.0337382
New Windsor,NY,41.4767605,-74.0237518
Mooers Forks,NY,44.9580936,-73.6406994
Johnstown,NY,43.0067399,-74.3676356
Middletown,NY,41.4459271,-74.4229341
Crawford,NY,41.55882,-74.3235539
Macedon,NY,43.064272,-77.3094674
Ellenville,NY,41.7170379,-74.3957099
Batavia,NY,42.9981156,-78.1875167
Poughkeepsie,NY,41.7003713,-73.9209701
Canandaigua,NY,42.887535,-77.2816984
Sandy Creek,NY,43.6442352,-76.0860345
Watertown,NY,43.9747838,-75.9107565
Geneva,NY,42.8679836,-76.985557
Dover Plains,NY,41.7412051,-73.5765151
Red Creek,NY,43.247289,-76.7235636
Schaghticoke,NY,42.9000773,-73.5853939
Brunswick,NY,42.7359115,-73.5615043
Rochester,NY,43.1565779,-77.6088465
Owego,NY,42.1034075,-76.2621549
Woodside,NY,40.7532704,-73.9068858
Yorktown Heights,NY,41.2709274,-73.7776336
Warrensburg,NY,43.4967351,-73.7762313
Flushing,NY,40.7647238,-73.8306716
Shelter Island,NY,41.0681549,-72.3386939
Jamaica,NY,40.7037439,-73.7991953
Rhinebeck,NY,41.9318294,-73.9074372
Tarrytown,NY,41.0762077,-73.8587461
Oswego,NY,43.4553461,-76.5104973
Croton On Hudson,NY,41.2084278,-73.8912481
Campbell,NY,42.2329086,-77.1969179
Woodbury,NY,41.3645382,-74.1059775
Hauppauge,NY,40.8256536,-73.2026138
Mohegan Lake,NY,41.3178717,-73.8462467
Sodus,NY,43.2378428,-77.0613618
Mt Kisco,NY,41.2042616,-73.7270761
Saugerties,NY,42.0775906,-73.9529126
Wawayanda,NY,41.394349,-74.4760088
Hogansburg,NY,44.9743028,-74.6667878
Melville,NY,40.7934322,-73.4151214
Glenville,NY,42.9292419,-74.0520717
Dryden,NY,42.4683542,-76.317414
Huron,NY,43.2333993,-76.8799617
Red Hook,NY,41.9950919,-73.8754114
Middlesex,NY,42.7053607,-77.2759641
Montgomery,NY,41.5275938,-74.236816
Narrowsburg,NY,41.602546,-75.0581943
Minisink,NY,41.3338698,-74.5346103
Wales,NY,42.7349683,-78.5433701
Caledonia,NY,42.9731175,-77.852785
Westerlo,NY,42.5150785,-74.0454099
Medusa,NY,42.4367469,-74.1301365
Troy,NY,42.7284117,-73.6917851
Hopewell Junction,NY,41.5839823,-73.8087442
Little Falls,NY,43.0434039,-74.8595957
Palenville,NY,42.1745334,-74.0201355
Walden,NY,41.5612048,-74.1884806
Otisville,NY,41.4734268,-74.5384933
Pine Bush,NY,41.6081492,-74.2990401
North Rose,NY,43.1849867,-76.8924065
Canastota,NY,43.0795121,-75.7507413
Niskayuna,NY,42.8000049,-73.8914407
Lewiston,NY,43.1725552,-79.0358782
Medina,NY,43.2200583,-78.3869685
Horseheads,NY,42.167019,-76.8205119
Ballston Lake,NY,42.9117377,-73.8680872
Norwich,NY,42.531184,-75.5235149
Lockport,NY,43.1706128,-78.6903098
Castle Creek,NY,42.2275753,-75.918253
Middle Grove,NY,43.0897964,-73.9179022
Sanborn,NY,43.1371937,-78.8848068
Hudson,NY,42.2528649,-73.790959
Clifton Park,NY,42.8602402,-73.7808906
Greenville,NY,42.4153596,-74.0220769
Carthage,NY,43.9781236,-75.6093591
Broklyn,NY,40.6781784,-73.9441579
Tuckahoe,NY,40.9503764,-73.827356
Long Island City,NY,40.744679,-73.9485424
Sleepy Hollow,NY,41.085652,-73.8584684
Saratoga Springs,NY,43.0831301,-73.7845651
Ossining,NY,41.1628731,-73.8615246
Albany,NY,42.6525793,-73.7562317
Quens,NY,40.7282239,-73.7948516
Briarcliff Manor,NY,41.1402322,-73.840231
Kew Gardens,NY,40.705695,-73.8272029
Harrison,NY,40.9700171,-73.7176337
Thornwood,NY,41.1174121,-73.7710893
Forest Hills,NY,40.718106,-73.8448469
White Plains,NY,41.0339862,-73.7629097
Erin,NY,42.1859078,-76.6699493
Bath,NY,42.3370164,-77.3177577
Hannibal,NY,43.3211788,-76.5788338
Larchmont,NY,40.9278769,-73.7517983
Millbrook,NY,41.7850937,-73.6940175
Hannacroix,NY,42.4289715,-73.8092911
Harrietstown,NY,44.3969967,-74.1584884
Slingerlands,NY,42.6292455,-73.8645685
Milton,NY,43.0336861,-73.8526225
Cortland,NY,42.6011813,-76.1804843
Rexford,NY,42.856336,-73.8886108
Seneca Falls,NY,42.9187636,-76.7913558
Hyde Park,NY,41.7846911,-73.9332993
Woodridge,NY,41.7106479,-74.5743262
Washingtonville,NY,41.4278716,-74.1659798
Tioga,NY,42.1090046,-76.3868797
Ulster,NY,41.8586493,-74.3118212
Turin,NY,43.6682497,-75.4111644
Gloversville,NY,43.0528506,-74.3437467
Geneseo,NY,42.795896,-77.816947
Binghamton,NY,42.0986867,-75.9179738
Ghent,NY,42.320699,-73.6300729
Fulton,NY,43.3228462,-76.4171585
Plattsburgh,NY,44.6994873,-73.4529124
Nichols,NY,42.021741,-76.3668815
Mooers,NY,44.9633714,-73.5873639
Spencerport,NY,43.1864501,-77.8038972
Ransomville,NY,43.2386666,-78.9097634
Bethel,NY,41.6837659,-74.8719284
Scotia,NY,42.8264652,-73.9642915
Rushford,NY,42.3922869,-78.2536243
Portage,NY,42.5625182,-77.9967043
Troupsburg,NY,42.0436813,-77.5460982
Hamlin,NY,43.3029418,-77.9210357
Fayette,NY,42.8584465,-76.8490328
Greenwich,NY,43.0901395,-73.4992824
Tioga Center,NY,42.056903,-76.34791
Valatie,NY,42.4134168,-73.6731749
Stanfordville,NY,41.8671647,-73.7137984
Lapeer,NY,42.4420167,-76.098816
Clayton,NY,44.239491,-76.0857759
Jackson Heights,NY,40.7556818,-73.8830701
Yonkers,NY,40.9312099,-73.8987469
Howard Beach,NY,40.6571222,-73.8429989
Hawthorne,NY,41.1073183,-73.7959666
Stone Ridge,NY,41.8408742,-74.1524394
Ridgewood,NY,40.7043986,-73.9018292
Valhalla,NY,41.0748188,-73.7751326
West Harrison,NY,41.0396611,-73.7480601
Amsterdam,NY,42.9377453,-74.190356
Cortlandt Manor,NY,41.2804112,-73.8714752
Marcellus,NY,42.9828438,-76.3404867
Mount Kisco,NY,41.2042616,-73.7270761
Mount Morris,NY,42.7256184,-77.8741694
Warwick,NY,41.256483,-74.3598755
Brockport,NY,43.2136713,-77.9391797
Holbrook,NY,40.8123205,-73.0784429
New Hampton,NY,41.4109272,-74.4071
Bliss,NY,42.5770023,-78.252819
Lagrangeville,NY,41.6495919,-73.7633635
Pulaski,NY,43.5670136,-76.1277027
Gainesville,NY,42.6408954,-78.1338985
Glenfield,NY,43.710347,-75.4021251
Lowville,NY,43.786736,-75.4918505
Freehold,NY,42.3592503,-74.0498564
Saint Johnsville,NY,43.0012346,-74.6781003
Heuvelton,NY,44.6181174,-75.4071638
Lisbon,NY,44.727284,-75.3210467
Walton,NY,42.1605191,-75.1078332
Camden,NY,43.3345138,-75.747964
Central Square,NY,43.2867356,-76.1460357
Adams,NY,43.8092321,-76.0240892
Afton,NY,42.228136,-75.5265715
La Fayette,NY,42.9119147,-76.1125902
Evans Mills,NY,44.0881158,-75.8071525
Arkport,NY,42.3945133,-77.6966596
Marilla,NY,42.8400595,-78.5550242
Oneida,NY,43.0925684,-75.6512931
Newburgh,NY,41.5034271,-74.0104178
Scottsville,NY,43.0258957,-77.7452826
Taberg,NY,43.3036805,-75.616848
West Henrietta,NY,43.0384885,-77.6632587
Akron,NY,43.0208924,-78.4953015
Fillmore,NY,42.4661754,-78.115008
Fort Johnson,NY,42.9584075,-74.2329093
Waterville,NY,42.931181,-75.3798924
Constable,NY,44.9292125,-74.2971311
Penn Yan,NY,42.6609026,-77.0538577
Newark Valley,NY,42.2236853,-76.183263
Endicott,NY,42.098408,-76.0493684
Goshen,NY,41.4020382,-74.3243191
Olean,NY,42.083639,-78.429927
Brier Hill,NY,44.5316815,-75.6626879
Rock Tavern,NY,41.4662049,-74.1912587
Castleton on Hudson,NY,42.5331974,-73.7462997
Fayetteville,NY,43.0297887,-76.0043643
West Valley,NY,42.4053664,-78.6122617
Manlius,NY,43.0020107,-75.9768632
Union Springs,NY,42.8397906,-76.6932818
Silver Creek,NY,42.5442251,-79.1667066
Oriskany,NY,43.1572918,-75.3326692
Cicero,NY,43.1763158,-76.1141646
Syracuse,NY,43.0481221,-76.1474244
Richmond Hill,NY,40.6999853,-73.8310309
Alfred Station,NY,42.269792,-77.7591607
Hartsdale,NY,41.0189863,-73.7981884
Sparrow Bush,NY,41.4000933,-74.7232189
West Coxsackie,NY,42.3509179,-73.8029028
Madrid,NY,44.7483037,-75.1325897
Palmyra,NY,43.0639521,-77.2333154
Cairo,NY,42.2982586,-74.006509
Champlain,NY,44.9864273,-73.4465251
Marion,NY,43.1431778,-77.1891456
Brocton,NY,42.3886688,-79.4411573
Rock City Falls,NY,43.0620189,-73.9170688
Niagara Falls,NY,43.0962143,-79.0377388
Swan Lake,NY,41.7531004,-74.7820108
Potsdam,NY,44.6697805,-74.9813084
North Bangor,NY,44.8420328,-74.4008638
Chaumont,NY,44.0669987,-76.1302089
Auburn,NY,42.9317335,-76.5660529
Whitney Point,NY,42.3289625,-75.9677001
Buffalo,NY,42.8864468,-78.8783689
Honeoye Falls,NY,42.9522855,-77.5902759
Hornell,NY,42.3278477,-77.6611025
Marcy,NY,43.1706253,-75.2915564
Lancaster,NY,42.9006144,-78.6703062
Piffard,NY,42.8283957,-77.8508375
Coxsackie,NY,42.3509179,-73.8029028
Belfast,NY,42.3422691,-78.1124127
Baldwinsville,NY,43.1586786,-76.3327095
Wellsville,NY,42.1220124,-77.9480575
Tully,NY,42.7981229,-76.1093695
Lansing,NY,42.4842392,-76.4799397
Clifton Springs,NY,42.9617304,-77.1399756
Cattaraugus,NY,42.3292287,-78.8680903
Honeoye,NY,42.7900604,-77.5166873
Clay,NY,43.1856814,-76.1717547
Cincinnatus,NY,42.5422923,-75.8957534
Campbell Hall,NY,41.4509952,-74.2660424
Orangeburg,NY,41.0468361,-73.9451952
Fultonville,NY,42.9478514,-74.3704128
Kenton,OH,40.6469982,-83.6096516
Marion,OH,40.5886699,-83.1285242
Malinta,OH,41.3225503,-84.0380002
Bellefontaine,OH,40.3611643,-83.7596557
New Concord,OH,39.9936837,-81.7340168
Delaware,OH,40.2986724,-83.067965
Findlay,OH,41.0391283,-83.6502309
Utica,OH,40.2342313,-82.4512699
Rossburg,OH,40.2789361,-84.6374571
Attica,OH,41.0647777,-82.887686
Oxford,OH,39.5069974,-84.745231
Wellington,OH,41.1689421,-82.2179354
Paulding,OH,41.1381051,-84.5805082
Urbana,OH,40.1083912,-83.7524298
Lancaster,OH,39.7136754,-82.5993294
New London,OH,41.0850542,-82.3998887
Mustang,OK,35.384226,-97.7244867
Hooker,OK,36.8600261,-101.2134954
Hollis,OK,34.6883948,-99.9120456
Tipton,OK,34.5028548,-99.1409144
Kingfisher,OK,35.861432,-97.9317203
Woodward,OK,36.4336481,-99.3903862
Frederick,OK,34.3920263,-99.0184093
Shawnee,OK,35.3272928,-96.9253004
Seminole,OK,35.2245201,-96.670573
Walters,OK,34.3598075,-98.3078258
Okmulgee,OK,35.6266957,-95.9515399
Wilburton,OK,34.91871,-95.3091383
Norman,OK,35.2225668,-97.4394777
Marietta,OK,33.937045,-97.1166788
Durant,OK,33.9924186,-96.3971233
Covington,OK,36.3075359,-97.5864376
Ashland,OR,42.1945758,-122.7094767
Eugene,OR,44.0520691,-123.0867536
Bend,OR,44.0581728,-121.3153096
Sandy,OR,45.3973141,-122.2630704
Sheridan,OR,45.0972788,-123.3953926
Molalla,OR,45.1475439,-122.5771264
Woodburn,OR,45.143731,-122.8553725
Portland,OR,45.515232,-122.6783853
Talent,OR,42.2456844,-122.7886462
Enterprise,OR,45.4262617,-117.2787815
Salem,OR,44.9428975,-123.0350963
Boring,OR,45.4313662,-122.3734641
Willamina,OR,45.0791034,-123.4845621
Yamhill,OR,45.3415301,-123.1878221
Beatty,OR,42.441815,-121.2708314
Sprague River,OR,42.4554215,-121.5041702
Weston,OR,45.813744,-118.424688
Klamath Falls,OR,42.224867,-121.7816704
Burrillville,RI,41.9661165,-71.6847247
West Warwick,RI,41.7036711,-71.5215024
Ashaway,RI,41.4234329,-71.7856238
Hope Valley,RI,41.5075996,-71.7161784
Cranston,RI,41.7798226,-71.4372796
West Greenwich,RI,41.6285498,-71.6638132
Woonsocket,RI,42.0028761,-71.5147839
Hopkinton,RI,41.4612719,-71.7775501
Foster,RI,41.8537098,-71.7581249
North Smithfield,RI,41.9667652,-71.5495071
East Greenwich,RI,41.6342619,-71.5130445
Moncks Corner,SC,33.1960027,-80.0131374
Rock Hill,SC,34.9248667,-81.0250784
Mauldin,SC,34.77873,-82.310119
Pickens,SC,34.8834489,-82.7073573
Laurens,SC,34.4990116,-82.0142597
Hardeeville,SC,32.2871413,-81.0806665
Ridgeland,SC,32.4807435,-80.980386
Gaffney,SC,35.0717945,-81.6498195
Abbeville,SC,34.1781719,-82.3790147
Aiken,SC,33.5604168,-81.7195533
St. Matthews,SC,33.664876,-80.7778681
Conway,SC,33.8360034,-79.0478143
Newberry,SC,34.2745833,-81.6187178
Winnsboro,SC,34.3807012,-81.0864776
Lake View,SC,34.3457189,-79.1655946
Springfield,SC,33.4968163,-81.2792711
York,SC,34.9943021,-81.2420175
Pelzer,SC,34.6462737,-82.4591443
Piedmont,SC,34.7023389,-82.4645714
Hampton,SC,32.8779425,-81.1276052
Shelbyville,TN,35.483406,-86.4602717
College Grove,TN,35.788399,-86.6744408
New Market,TN,36.1039766,-83.5526751
Chattanooga,TN,35.0457984,-85.3093995
Nashville,TN,36.1626638,-86.7816016
Telford,TN,36.2489943,-82.5451479
Orange Grove,TX,27.9566843,-97.9369447
Adkins,TX,29.3930129,-98.2372329
Sealy,TX,29.7807878,-96.1571833
Bedias,TX,30.7757486,-95.949397
Walnut Springs,TX,32.0576479,-97.749471
Vernon,TX,34.1545306,-99.2650804
Austin,TX,30.267153,-97.7430608
Gonzales,TX,29.5016257,-97.4524926
El Paso,TX,31.7618778,-106.4850217
Leakey,TX,29.7288351,-99.761448
Krugerville,TX,33.2815064,-96.9905628
Meridian,TX,31.9232085,-97.6566894
Wallis,TX,29.6313486,-96.0652362
San Antonio,TX,29.4251905,-98.4945922
Clifton,TX,31.7823798,-97.5766862
Odessa,TX,31.8456816,-102.3676431
Stephenville,TX,32.2206958,-98.2022633
McAllen,TX,26.2034071,-98.2300124
St. George,UT,37.0965278,-113.5684164
Logan,UT,41.7369803,-111.8338359
Holden,UT,39.0988507,-112.2707709
Lexington,VA,37.7840208,-79.4428157
Scottsville,VA,37.798754,-78.4955648
White Post,VA,39.0570514,-78.1036099
Eastville,VA,37.3526369,-75.945765
Charlotte,VT,44.3098476,-73.2609928
Richmond,VT,44.4053135,-72.9924128
Middlebury,VT,44.0153371,-73.16734
Westford,VT,44.5983349,-72.9977003
Saxtons River,VT,43.1378556,-72.5098115
Putney,VT,42.975268,-72.5217237
Townshend,VT,43.0472267,-72.6678428
Rutland,VT,43.6106237,-72.9726065
Brattleboro,VT,42.8509152,-72.5578678
Springfield,VT,43.298701,-72.4819743
Groton,VT,44.2276842,-72.2826657
West Rutland,VT,43.5930919,-73.0451081
Chester,VT,43.2628476,-72.5951082
Waitsfield,VT,44.1926386,-72.7798479
Waterford,VT,44.3729726,-71.9508384
Dummerston,VT,42.9215017,-72.5838146
Guilford,VT,42.8170235,-72.575487
Alburgh,VT,44.9750541,-73.3002239
Burlington,VT,44.4758825,-73.212072
Thetford,VT,43.8250578,-72.2434689
Londonderry,VT,43.2264643,-72.8064866
Hinesburg,VT,44.3292199,-73.110679
Grand Isle,VT,44.7225436,-73.2923538
Ellensburg,WA,46.9965144,-120.5478474
Winthrop,WA,48.4779232,-120.1861956
Edmonds,WA,47.8106521,-122.3773552
Seattle,WA,47.6061389,-122.3328481
Twisp,WA,48.3634784,-120.122303
Spokane,WA,47.6579711,-117.4235319
Vancouver,WA,45.6280277,-122.673865
Gig Harbor,WA,47.3293853,-122.5808577
Shelton,WA,47.2150945,-123.1007066
Kennewick,WA,46.2086683,-119.119948
Spokane Valley,WA,47.6732281,-117.2393748
Prosser,WA,46.2067997,-119.7689222
North Bend,WA,47.4956579,-121.7867775
Longview,WA,46.1381676,-122.9381672
Pasco,WA,46.2305049,-119.0922316
Tacoma,WA,47.2528768,-122.4442906
Kingston,WA,47.7987072,-122.4981921
Anacortes,WA,48.5126045,-122.6126718
West Richland,WA,46.3043015,-119.3614092
Sequim,WA,48.0795365,-123.1018437
Arlington,WA,48.1987118,-122.1251418
Delavan,WI,42.6330703,-88.6437138
Barron,WI,45.4013471,-91.8490626
Hammond,WI,44.978855,-92.4357486
Westby,WI,43.6569157,-90.8542977
Greenwood,WI,44.7702406,-90.5993076
Medford,WI,45.1385798,-90.3401404
New Richmond,WI,45.1230213,-92.5365865
River Falls,WI,44.8596311,-92.6254966
Hillsboro,WI,43.6521958,-90.3440178
Menomonie,WI,44.8755183,-91.9193422
Iron River,WI,46.5645775,-91.408211
Necedah,WI,44.0260775,-90.0740181
Middleton,WI,43.0972174,-89.5042876
Eau Claire,WI,44.811349,-91.4984941
Sparta,WI,43.9441328,-90.8129118
Sharon,MA,42.1236499,-71.1786237
Champaign,IL,40.1164204,-88.2433829
Urbana,IL,40.1105875,-88.2072697
Rifle,CO,39.5347023,-107.7831198
Shelbyville,TN,35.483406,-86.4602717
Elizabeth,IL,42.3177911,-90.221517
Springfield,MO,37.2089572,-93.2922989
Hazlehurst,GA,31.8696309,-82.5943026
Medford,WI,45.1385798,-90.3401404
New Richmond,WI,45.1230213,-92.5365865
Columbia,MO,38.9517053,-92.3340724
Bedias,TX,30.7757486,-95.949397
Aiken,SC,33.5604168,-81.7195533
Boxborough,MA,42.4834197,-71.5167139
Port Jervis,NY,41.3750937,-74.692663
Mount Morris,IL,42.0503062,-89.4312201
New Malborough,MA,42.1111825,-73.2529464
Dayton,OR,45.220824,-123.0755789
Canby,OR,45.262692,-122.6957402
Estacada,OR,45.2877198,-122.3351638
Mt Angel,OR,45.0678986,-122.8000917
Holly Springs,AR,33.8153834,-92.7096054
Scott,AR,34.6964808,-92.0962552
Unincorporated Kern County,CA,35.4937274,-118.8596804
Cameo,CO,39.1485917,-108.3209184
El Jebel,CO,39.3949838,-107.0903259
Steamboat Springs,CO,40.4849769,-106.8317158
Toombs County,GA,32.0795072,-82.345189
Davisboro,GA,32.9790425,-82.6079095
Summum,IL,40.267822,-90.2784557
Springfiled,IL,39.7817213,-89.6501481
Spring Mill,IN,38.1434011,-85.6307922
Ogilville,IN,39.1258849,-86.0152679
Perryville,IN,40.5911569,-85.0405246
Zumbrota Falls,MN,44.2833001,-92.4221257
Clover Valley,MN,47.0002996,-91.8471057
Bonner-West Riverside,MT,46.8789224,-113.8932526
Kings Creek,NC,35.991986,-81.4030577
Pahrump,NV,36.2082943,-115.9839147
Quuens,NY,40.7282239,-73.7948516
Midway,SC,33.2834911,-80.9781524
Meridan,TX,31.9232085,-97.6566894
Colleen,VA,37.709308,-78.9311339
Kendall Grove,VA,37.36778,-75.92139
Skagit,WA,48.4241961,-121.7114362
Town of Red Cedar,WI,44.6891303,-91.8843368
Fall Creek,WI,44.7635717,-91.2770993
Cashton,WI,43.7419143,-90.7792984
Estby,WI,43.7844397,-88.7878678
Babcock Ranch,FL,26.8739165,-81.7194842
DeSoto County,FL,27.2142078,-81.7787021
Baker County,FL,30.3931168,-82.3017728
Martin County,FL,27.0804935,-80.4103957
Putnam County,FL,29.6265157,-81.7787021
Fairbault,MN,44.2949636,-93.268827
Carnston,RI,41.7798226,-71.4372796
Oberon,TX,31.9685988,-99.9018131
Glydon,MN,46.8772557,-96.5788187
Camden,AR,33.5836341,-92.8341045
Florence,AZ,33.0314508,-111.3873431
Novato,CA,38.1074198,-122.5697032
Fresno,CA,36.7377981,-119.7871247
Kern,CA,35.7546732,-118.4253627
Rancho Seco,CA,35.28306,-117.98889
Sacramento,CA,38.5815719,-121.4943996
Imperial Valley,CA,32.7375477,-114.9633007
Delta,CO,38.7422062,-108.0689582
Tavernier,FL,25.0115186,-80.5150608
Athens,GA,33.9519347,-83.357567
Winchester,IL,39.6297689,-90.4562355
Willow Branch,IN,39.8761543,-85.6844211
Portland,ME,43.6590993,-70.2568189
Chadborne,NC,34.3221129,-78.8269664
Hatteras Village,NC,35.2194549,-75.6903492
Pee Dee,NC,34.935,-79.88972
Caswell,NC,36.3860217,-79.2902133
Ahoskie,NC,36.2868223,-76.9846808
Columbus,NE,41.4302973,-97.3593904
New Providence,NJ,40.6984348,-74.4015405
Medford,OR,42.3265152,-122.8755949
Hood River,OR,45.708857,-121.5122706
Philadelphia,PA,39.9525839,-75.1652215
Liberty,SC,34.787891,-82.6923591
Gafney,SC,35.0717945,-81.6498195
Greenville,SC,34.8526176,-82.3940104
Palmetto,SC,34.2520979,-79.8272841
Millard County,UT,39.0611744,-113.1918021
Arcadia,WI,44.2527405,-91.5015432
